[{"boundingBox":{"east_long":-96.943763,"north_lat":32.747383,"south_lat":32.563973,"west_long":-97.078573},"id":"974468708067397632","locationName":"Lakeland Heights, TX","text":"lol ","timestamp":"1521166419413","type":"Twitter"},
{"boundingBox":{"east_long":-86.20517,"north_lat":43.206059,"south_lat":43.117747,"west_long":-86.320001},"id":"974468307838369797","locationName":"Norton Shores, MI","text":"quickly lead lose office bracket base fact pick sfa lumberjacks duh ","timestamp":"1521166323991","type":"Twitter"},
{"boundingBox":{"east_long":129.00193,"north_lat":-13.689492,"south_lat":-35.134846,"west_long":112.921114},"id":"974470546493644800","locationName":"Western Australia, Australia","text":"prisonplanet job trump drain hollywood swamp policy work maga ","timestamp":"1521166857728","type":"Twitter"},
{"boundingBox":{"east_long":106.852353,"north_lat":-6.201177,"south_lat":-6.24152,"west_long":106.817351},"id":"974469961933512704","locationName":"Setia Budi, Indonesia","text":"hakanc10 acmilan goal hakan ","timestamp":"1521166718358","type":"Twitter"},
{"boundingBox":{"east_long":-64.64728,"north_lat":32.39119,"south_lat":32.24704,"west_long":-64.88734},"id":"974470720733548544","locationName":"Bermuda","text":"papaporter1 chantal07851635 edward733 mansingh105 ultramannumber6 francesco19515 isamuuran1316 ieronimbo ","timestamp":"1521166899270","type":"Twitter"},
{"boundingBox":{"east_long":-75.857034,"north_lat":42.156489,"south_lat":42.067082,"west_long":-75.95015},"id":"974468478123077632","locationName":"Binghamton, NY","text":"excite film tomorrow youtube fun game fall tomorr ","timestamp":"1521166364590","type":"Twitter"},
{"boundingBox":{"east_long":-88.162095,"north_lat":40.157407,"south_lat":40.072763,"west_long":-88.238573},"id":"974468729630265344","locationName":"Urbana, IL","text":"form marginal thermodynamic environment 00z oakland ca sound representat ","timestamp":"1521166424554","type":"Twitter"},
{"boundingBox":{"east_long":-0.202402,"north_lat":52.631065,"south_lat":52.535472,"west_long":-0.328914},"id":"974469196397666304","locationName":"Peterborough, England","text":"hursey dipps4james smithyy xx ","timestamp":"1521166535840","type":"Twitter"},
{"boundingBox":{"east_long":-122.721832,"north_lat":45.403778,"south_lat":45.349158,"west_long":-122.818314},"id":"974470729478553600","locationName":"Tualatin, OR","text":"blazers lebron poster huge ","timestamp":"1521166901355","type":"Twitter"},
{"boundingBox":{"east_long":-95.069705,"north_lat":30.154665,"south_lat":29.522325,"west_long":-95.823268},"id":"974470451127832576","locationName":"Houston, TX","text":"niggas annoy ","timestamp":"1521166834991","type":"Twitter"}]
